City_ID,City,Lat,Lng,Max Temp,Humidity,Cloudiness,Wind Speed,Country,Date
0,wailua homesteads,22.0669,-159.378,26.24,80,20,7.72,US,1694501280
1,stanley,54.868,-1.6985,12.1,92,40,1.54,GB,1694501280
2,port douglas,-16.4833,145.4667,23.03,67,6,8.47,AU,1694501281
3,yellowknife,62.456,-114.3525,16.34,85,100,4.12,CA,1694501193
4,ulladulla,-35.35,150.4667,17.07,61,57,3.47,AU,1694501281
5,olonkinbyen,70.9221,-8.7187,3.06,74,100,8.57,SJ,1694501281
6,bethel,41.3712,-73.414,20.26,86,18,1.57,US,1694501282
7,crane,31.3974,-102.3501,20.81,83,50,9.5,US,1694501282
8,punta arenas,-53.15,-70.9167,3.06,93,100,2.06,CL,1694501002
9,la passe,45.5549,-0.8967,19.99,84,97,3.2,FR,1694501282
10,pyhajarvi,67.0701,27.2176,15.39,95,100,5.81,FI,1694501283
11,jamestown,42.097,-79.2353,17.06,99,0,2.06,US,1694501283
12,khovd,48.0056,91.6419,23.49,25,86,1.64,MN,1694501283
13,college,64.8569,-147.8028,8.99,92,100,1.54,US,1694501283
14,edinburgh of the seven seas,-37.0676,-12.3116,12.67,84,100,12.14,SH,1694501283
15,coos bay,43.3665,-124.2179,14.96,94,0,0.0,US,1694501284
16,bilibino,68.0546,166.4372,6.65,76,100,2.15,RU,1694501284
17,orkney,-26.9802,26.6727,7.73,40,0,3.68,ZA,1694501284
18,port-aux-francais,-49.35,70.2167,4.45,92,100,10.54,TF,1694501284
19,ola,59.5833,151.2833,11.75,70,99,1.82,RU,1694501284
20,laguna,38.421,-121.4238,22.83,70,0,3.09,US,1694501285
21,lihue,21.9789,-159.3672,26.58,80,20,7.72,US,1694501285
22,ribeira grande,38.5167,-28.7,22.1,83,20,4.92,PT,1694501285
23,sao jose da coroa grande,-8.8978,-35.1478,23.52,86,4,4.72,BR,1694501285
24,kristiansund,63.1115,7.732,11.36,76,75,2.06,NO,1694501286
25,marsh harbour,26.5412,-77.0636,28.44,73,2,4.25,BS,1694501286
26,kemijarvi,66.7131,27.4306,15.66,93,100,6.06,FI,1694501286
27,akrehamn,59.2667,5.1833,14.44,77,40,6.17,NO,1694501286
28,luderitz,-26.6481,15.1594,14.25,35,0,3.0,NA,1694501286
29,waitangi,-43.9535,-176.5597,11.57,88,53,7.15,NZ,1694501287
30,talnakh,69.4865,88.3972,9.56,69,96,7.18,RU,1694501287
31,kenora,49.8167,-94.4337,8.54,81,20,3.09,CA,1694501287
32,bredasdorp,-34.5322,20.0403,11.26,53,9,2.49,ZA,1694501287
33,awjilah,29.1081,21.2869,24.14,57,0,5.15,LY,1694501287
34,fada,9.5667,8.3,19.84,93,100,1.99,NG,1694501288
35,longyearbyen,78.2186,15.6401,1.91,80,75,3.09,SJ,1694501119
36,ushuaia,-54.8,-68.3,2.81,87,0,2.06,AR,1694500802
37,adamstown,-25.066,-130.1015,21.87,85,83,13.7,PN,1694501288
38,avarua,-21.2078,-159.775,21.03,64,20,3.6,CK,1694501288
39,chibougamau,49.9168,-74.3659,12.79,82,100,2.06,CA,1694501289
40,iqaluit,63.7506,-68.5145,2.85,81,75,2.06,CA,1694501289
41,rongelap,11.1635,166.8941,29.01,79,100,7.19,MH,1694501289
42,blackmans bay,-43.0167,147.3167,13.07,82,75,1.48,AU,1694501289
43,port elizabeth,-33.918,25.5701,11.72,81,75,4.12,ZA,1694501290
44,tekkali,18.6167,84.2333,28.55,79,100,1.86,IN,1694501290
45,mariental,-24.6333,17.9667,6.86,31,0,6.48,NA,1694501290
46,papatowai,-46.5619,169.4708,5.33,85,89,8.67,NZ,1694501290
47,flin flon,54.7682,-101.865,8.04,75,6,3.59,CA,1694501290
48,ust-tsilma,65.441,52.1498,16.07,60,45,2.99,RU,1694501291
49,puerto natales,-51.7236,-72.4875,2.09,95,100,2.98,CL,1694501291
50,isafjordur,66.0755,-23.124,6.45,72,61,3.2,IS,1694501291
51,sisimiut,66.9395,-53.6735,3.88,96,100,10.28,GL,1694501291
52,albany,42.6001,-73.9662,17.72,91,3,1.03,US,1694501123
53,nefta,33.8731,7.8777,26.14,46,0,6.33,TN,1694501292
54,vernon,50.2581,-119.2691,17.74,67,16,2.06,CA,1694501251
55,alofi,-19.0595,-169.9187,21.94,94,41,6.17,NU,1694501292
56,hawaiian paradise park,19.5933,-154.9731,23.35,96,100,5.14,US,1694501292
57,vorgashor,67.5833,63.95,13.12,50,81,1.95,RU,1694501293
58,veinticinco de mayo,-35.4323,-60.1727,7.45,40,100,2.81,AR,1694501293
59,sitka,57.0531,-135.33,12.94,94,100,6.17,US,1694501293
60,petauke,-14.2426,31.3253,28.88,25,0,3.08,ZM,1694501293
61,hermanus,-34.4187,19.2345,9.89,61,37,2.82,ZA,1694501293
62,nyaunglebin,17.95,96.7333,23.97,96,100,2.53,MM,1694501294
63,west island,-12.1568,96.8225,28.99,70,40,8.23,CC,1694501294
64,barra de santo antonio,-9.4047,-35.5072,21.6,87,6,4.08,BR,1694501294
65,vilyuchinsk,52.9306,158.4028,15.15,78,100,1.34,RU,1694501294
66,bath,51.3779,-2.3591,18.41,92,100,1.54,GB,1694501295
67,isangel,-19.55,169.2667,24.06,73,75,1.54,VU,1694501295
68,margate,51.3813,1.3862,18.16,93,74,0.45,GB,1694501295
69,wukari,7.85,9.7833,23.72,94,100,2.77,NG,1694501295
70,labytnangi,66.6572,66.4183,17.44,59,38,1.13,RU,1694501295
71,gorontalo,0.5412,123.0595,26.72,82,94,1.82,ID,1694501296
72,grytviken,-54.2811,-36.5092,-2.66,85,21,4.38,GS,1694501296
73,san patricio,28.017,-97.5169,28.92,62,0,3.84,US,1694501296
74,pacific grove,36.6177,-121.9166,16.06,93,100,3.6,US,1694501296
75,shagonar,51.5333,92.8,18.63,42,100,2.75,RU,1694501296
76,konduga,11.6558,13.4213,27.84,51,100,4.56,NG,1694501297
77,novyy rogachik,48.6768,44.0608,15.5,37,95,3.61,RU,1694501297
78,ilulissat,69.2167,-51.1,3.01,65,100,2.57,GL,1694501297
79,chilakalurupet,16.0833,80.1667,33.3,57,93,6.89,IN,1694501297
80,bururi,-3.85,29.6333,21.06,57,51,1.31,BI,1694501298
81,la'ie,21.6477,-157.9253,27.98,75,8,4.47,US,1694501298
82,okha,53.5739,142.9478,17.68,83,94,6.31,RU,1694501298
83,suva,-18.1416,178.4415,25.71,78,40,3.09,FJ,1694501298
84,alice springs,-23.7,133.8833,25.75,10,0,7.2,AU,1694501299
85,ibshaway,29.358,30.6814,28.38,54,30,7.62,EG,1694501299
86,wichita falls,33.9137,-98.4934,21.08,93,75,4.63,US,1694501299
87,caraballeda,10.6112,-66.8522,28.04,69,0,2.57,VE,1694501299
88,kavaratti,10.5669,72.642,27.66,78,100,6.48,IN,1694501299
89,oranjemund,-28.55,16.4333,12.4,40,2,5.8,NA,1694501300
90,brookings,44.3114,-96.7984,12.43,98,100,1.54,US,1694501300
91,petropavlovsk-kamchatsky,53.0452,158.6483,14.33,63,75,3.0,RU,1694501300
92,richards bay,-28.783,32.0377,14.82,73,100,8.43,ZA,1694500751
93,guerrero negro,27.9769,-114.0611,22.59,82,0,3.99,MX,1694501301
94,georgetown,5.4112,100.3354,31.97,70,20,4.63,MY,1694501237
95,nemuro,43.3236,145.575,19.79,96,96,7.65,JP,1694501301
96,melilla,35.2937,-2.9383,22.21,88,20,3.6,ES,1694501301
97,qaqortoq,60.7167,-46.0333,3.56,87,94,0.72,GL,1694501301
98,whitehorse,60.7161,-135.0538,10.43,64,75,7.72,CA,1694501169
99,santiago de cao,-7.9589,-79.2392,19.07,88,98,3.6,PE,1694501302
100,saint-philippe,-21.3585,55.7679,27.84,71,0,6.09,RE,1694501302
101,katsuura,35.1333,140.3,26.94,71,83,3.42,JP,1694501302
102,haiku-pauwela,20.9219,-156.3051,24.47,70,20,5.66,US,1694501302
103,vinhais,41.8351,-7.005,14.08,86,8,1.2,PT,1694501303
104,ayr,55.4627,-4.6339,9.62,93,40,0.51,GB,1694501053
105,bengkulu,-3.8004,102.2655,27.24,76,81,4.28,ID,1694501303
106,rabo de peixe,37.8,-25.5833,20.55,99,20,2.06,PT,1694501303
107,lionel town,17.8101,-77.2406,27.94,87,1,1.94,JM,1694501303
108,antigonish,45.6169,-61.9986,20.08,99,100,1.43,CA,1694501304
109,ghanzi,-21.5667,21.7833,9.91,26,0,8.16,BW,1694501304
110,tiksi,71.6872,128.8694,5.48,76,100,11.71,RU,1694501304
111,basco,20.4487,121.9702,27.76,70,12,3.42,PH,1694501305
112,tasova,40.7597,36.3225,16.23,71,99,1.03,TR,1694501305
113,badger,64.8,-147.5333,8.95,93,100,1.54,US,1694501305
114,coquimbo,-29.9533,-71.3436,12.85,82,75,1.54,CL,1694500996
115,mo i rana,66.3128,14.1428,11.29,93,75,2.06,NO,1694501305
116,karratha,-20.7377,116.8463,31.63,25,71,6.11,AU,1694501306
117,dubovka,49.0583,44.829,15.53,48,77,3.85,RU,1694501306
118,mejit,10.2753,170.8646,28.8,79,100,6.92,MH,1694501306
119,contamana,-7.3333,-75.0167,23.68,79,21,1.19,PE,1694501306
120,taroa,8.7058,171.2275,28.89,75,99,6.54,MH,1694501306
121,yarmouth,41.7057,-70.2286,22.08,96,100,1.54,US,1694501307
122,xiongzhou,25.1167,114.3,30.45,76,99,1.12,CN,1694501307
123,hithadhoo,-0.6,73.0833,28.05,76,22,5.82,MV,1694501307
124,severo-yeniseyskiy,60.3725,93.0408,13.34,49,9,2.15,RU,1694501307
125,kosciusko,33.0576,-89.5876,19.12,68,100,1.89,US,1694501308
126,soio,-6.1349,12.3689,23.83,75,6,1.79,AO,1694501308
127,susuman,62.7833,148.1667,8.45,47,28,4.24,RU,1694501308
128,macia,-25.0269,33.0989,15.79,77,100,8.0,MZ,1694501308
129,sakakah,29.9697,40.2064,31.76,18,5,1.6,SA,1694501309
130,dubbo,-32.25,148.6167,22.07,28,100,4.63,AU,1694501309
131,grosseto,42.8333,11.25,22.87,82,0,2.57,IT,1694500902
132,holualoa,19.6228,-155.9522,24.91,79,75,2.57,US,1694501309
133,dudinka,69.4058,86.1778,9.79,66,97,8.42,RU,1694501309
134,uturoa,-16.7333,-151.4333,24.32,85,98,11.45,PF,1694501310
135,nhamunda,-2.1861,-56.7131,24.04,79,14,0.96,BR,1694501310
136,queenstown,-31.8976,26.8753,4.38,56,6,1.0,ZA,1694501310
137,thompson,55.7435,-97.8558,9.09,76,20,4.12,CA,1694501310
138,papao,-17.75,-149.55,22.82,89,98,11.44,PF,1694501310
139,klyuchi,52.2667,79.1667,18.93,45,67,7.88,RU,1694501311
140,invercargill,-46.4,168.35,5.57,86,100,5.81,NZ,1694501311
141,new norfolk,-42.7826,147.0587,13.73,72,93,1.09,AU,1694501311
142,margaret river,-33.95,115.0667,17.12,86,89,4.09,AU,1694501311
143,comacchio,44.6975,12.1858,22.81,50,100,1.21,IT,1694501312
144,dampit,-8.2116,112.7493,29.53,46,15,4.5,ID,1694501312
145,pangody,65.85,74.4859,13.56,57,100,5.0,RU,1694501312
146,anshun,26.25,105.9333,19.08,75,99,9.49,CN,1694501312
147,bozova,37.3625,38.5267,27.55,27,100,1.31,TR,1694501312
148,utrik,11.2278,169.8474,28.96,76,100,7.75,MH,1694501313
149,arraial do cabo,-22.9661,-42.0278,21.42,90,0,12.12,BR,1694501313
150,fale old settlement,-9.3852,-171.2468,28.48,75,100,6.29,TK,1694501313
151,timimoun,29.2639,0.231,29.21,24,0,2.57,DZ,1694501313
152,tolanaro,-25.0319,46.9987,26.04,61,0,2.57,MG,1694501313
153,port alfred,-33.5906,26.891,13.43,62,39,2.68,ZA,1694501314
154,iskateley,67.6803,53.1512,15.77,74,94,6.62,RU,1694501314
155,greenville,35.6127,-77.3663,21.74,97,0,0.0,US,1694501249
156,puerto ayora,-0.7393,-90.3518,23.64,87,48,3.58,EC,1694501314
157,antsiranana,-12.2787,49.2917,28.42,44,40,9.26,MG,1694501314
158,east london,-33.0153,27.9116,12.52,47,0,6.17,ZA,1694501108
159,mendi,-6.1761,143.6513,13.64,100,100,0.81,PG,1694501315
160,mata-utu,-13.2816,-176.1745,27.44,79,90,6.85,WF,1694501315
161,mount gambier,-37.8333,140.7667,18.19,55,56,3.42,AU,1694501315
162,kharp,66.8014,65.8081,15.84,65,38,2.64,RU,1694501316
163,chissamba,-12.1667,17.3333,24.07,32,1,1.64,AO,1694501316
164,along,28.1667,94.7667,32.11,51,98,1.9,IN,1694501316
165,revda,56.801,59.9303,15.33,56,94,5.21,RU,1694501316
166,loyew,51.9458,30.7953,20.15,38,0,2.25,BY,1694501317
167,torghay,49.6339,63.4981,12.72,87,100,7.34,KZ,1694501317
168,walvis bay,-22.9575,14.5053,16.1,38,0,2.01,NA,1694501317
169,el sauzal de rodriguez,31.9,-116.6833,20.79,82,97,3.91,MX,1694501317
170,kapuskasing,49.4169,-82.4331,7.05,93,100,4.12,CA,1694501318
171,woodstock,43.1334,-80.7497,17.59,86,100,2.41,CA,1694501302
172,tulu bolo,8.6667,38.2167,15.17,94,100,2.74,ET,1694501318
173,newman,37.3138,-121.0208,22.13,70,0,1.87,US,1694501318
174,floro,61.5996,5.0328,12.2,82,40,6.69,NO,1694501318
175,jayapura,-2.5333,140.7,32.66,81,24,3.23,ID,1694501318
176,kem',64.9555,34.5793,17.5,74,59,6.16,RU,1694501319
177,at taj,24.2049,23.2857,27.94,30,0,4.61,LY,1694501319
178,metlili chaamba,32.2667,3.6333,26.52,34,75,0.0,DZ,1694501319
179,happy valley-goose bay,53.3168,-60.3315,10.17,93,40,1.54,CA,1694501110
180,lompoc,34.6391,-120.4579,16.12,85,100,12.52,US,1694501313
181,wauchope,-31.45,152.7333,18.31,61,95,1.68,AU,1694501320
182,ouarzazat,30.9189,-6.8934,20.16,17,40,2.57,MA,1694501320
183,bac lieu,9.285,105.7244,29.3,73,76,5.33,VN,1694501320
184,egilsstadir,65.2653,-14.3948,-0.05,74,0,2.06,IS,1694501320
185,aldama,22.9167,-98.0667,27.43,92,0,0.89,MX,1694501321
186,alghero,40.5589,8.3181,18.05,88,0,0.0,IT,1694500901
187,st. john's,47.5649,-52.7093,13.77,97,100,3.58,CA,1694501208
188,aasiaat,68.7098,-52.8699,0.12,78,100,3.43,GL,1694501321
189,santa terezinha,-29.9002,-50.0904,17.74,92,100,2.19,BR,1694501321
190,kodiak,57.79,-152.4072,7.73,87,100,0.0,US,1694501322
191,box elder,41.5005,-112.8764,21.87,44,74,1.1,US,1694501322
192,greymouth,-42.4667,171.2,9.63,87,100,7.04,NZ,1694501322
193,port mathurin,-19.6833,63.4167,23.01,72,99,8.67,MU,1694501322
194,mwene-ditu,-7.0,23.45,27.56,51,10,1.85,CD,1694501323
195,champerico,14.3,-91.9167,25.39,85,100,2.97,GT,1694501323
196,navlya,52.8281,34.4989,17.96,52,22,2.02,RU,1694501323
197,mont-tremblant,46.1949,-74.6264,14.09,94,98,0.51,CA,1694501170
198,tuscaloosa,33.2098,-87.5692,22.8,83,0,0.0,US,1694501238
199,nova sintra,14.8667,-24.7167,24.67,78,14,2.69,CV,1694501324
200,rio gallegos,-51.6226,-69.2181,5.03,75,0,2.06,AR,1694501324
201,vila franca do campo,37.7167,-25.4333,21.05,99,29,1.21,PT,1694501324
202,lamu,-2.2717,40.902,28.12,74,18,4.4,KE,1694501324
203,salalah,17.0151,54.0924,30.05,79,40,4.63,OM,1694501325
204,san pedro pochutla,15.7333,-96.4667,25.4,86,56,1.41,MX,1694501325
205,trairi,-3.2778,-39.2689,25.17,74,0,5.71,BR,1694501325
206,brisas de zicatela,15.8369,-97.0419,25.98,87,50,3.05,MX,1694501325
207,lycksele,64.5954,18.6735,13.93,88,75,2.57,SE,1694501326
208,ontario,34.0633,-117.6509,27.51,59,75,2.57,US,1694500860
209,hami,42.8,93.45,33.82,11,0,2.03,CN,1694501326
210,narasannapeta,18.4167,84.05,28.05,82,100,1.82,IN,1694501326
211,quellon,-43.1167,-73.6167,7.14,100,75,1.03,CL,1694501326
212,xiantao,30.3833,113.4,22.82,88,100,6.48,CN,1694501327
213,hotan,37.0997,79.9269,33.1,9,0,3.35,CN,1694501327
214,saipan,15.1355,145.701,29.39,79,0,4.12,MP,1694501327
215,bom jesus,-9.0744,-44.3586,22.66,59,0,1.72,BR,1694501327
216,ust-nera,64.5667,143.2,5.72,56,89,1.88,RU,1694501327
217,la mira,18.035,-102.3266,25.2,88,3,1.3,MX,1694501328
218,mana,5.6592,-53.7767,25.21,90,81,4.16,GF,1694501328
219,cabo san lucas,22.8909,-109.9124,29.31,85,0,3.13,MX,1694501053
220,bel ombre,-4.6167,55.4167,28.91,74,40,7.72,SC,1694501328
221,al kharijah,25.4514,30.5464,31.55,33,0,4.36,EG,1694501329
222,callaway,30.153,-85.5699,27.19,86,0,2.57,US,1694501223
223,naze,28.3667,129.4833,29.51,75,98,4.04,JP,1694501329
224,remire-montjoly,4.9167,-52.2667,23.02,100,0,0.0,GF,1694501329
225,cannonvale,-20.2833,148.7,21.66,65,30,10.65,AU,1694501329
226,kingston,17.997,-76.7936,27.53,83,20,1.03,JM,1694501330
227,rakops,-21.0167,24.3333,13.93,23,3,6.09,BW,1694501330
228,halifax,44.6453,-63.5724,20.84,97,100,1.03,CA,1694501245
229,lebu,-37.6167,-73.65,7.26,86,6,1.56,CL,1694501330
230,pierre,44.3683,-100.351,14.92,70,75,3.6,US,1694501330
231,keuruu,62.2667,24.7,16.1,89,100,3.73,FI,1694501331
232,anadyr,64.75,177.4833,8.28,65,40,2.0,RU,1694501331
233,prince rupert,54.3161,-130.3201,13.05,96,100,10.29,CA,1694501331
234,tevriz,57.509,72.4042,16.58,49,0,5.14,RU,1694501102
235,karelichy,53.5653,26.1378,18.95,56,4,3.74,BY,1694501331
236,batticaloa,7.7102,81.6924,32.48,54,100,2.24,LK,1694501193
237,kruisfontein,-34.0033,24.7314,10.49,49,22,4.67,ZA,1694501332
238,flying fish cove,-10.4217,105.6791,25.82,83,100,5.66,CX,1694501332
239,pemangkat,1.1667,108.9667,30.14,60,41,4.97,ID,1694501251
240,nguigmi,14.2495,13.1092,30.84,53,100,5.99,NE,1694501332
241,hailar,49.2,119.7,14.45,32,98,6.8,CN,1694501333
242,lobujya,27.95,86.8167,6.36,82,100,0.58,NP,1694501333
243,hasaki,35.7333,140.8333,29.22,66,72,4.29,JP,1694501333
244,el calafate,-50.3408,-72.2768,1.14,88,82,2.4,AR,1694501333
245,dunedin,-45.8742,170.5036,7.11,71,51,4.02,NZ,1694501177
246,sirnak,37.5228,42.4594,23.04,34,90,4.05,TR,1694501334
247,al ghayzah,16.2079,52.176,30.53,70,45,4.42,YE,1694501334
248,gadzhiyevo,69.2551,33.3362,15.31,85,99,11.0,RU,1694501334
249,enewetak,11.3474,162.3373,28.78,76,26,4.61,MH,1694501334
250,novokhopersk,51.0969,41.6252,16.22,52,100,3.54,RU,1694501335
251,amursk,50.2261,136.8994,19.28,61,100,7.59,RU,1694501335
252,juneau,58.3019,-134.4197,12.9,97,100,6.17,US,1694501335
253,colonia,50.9333,6.95,21.09,85,75,1.54,DE,1694501054
254,calwell,-35.4404,149.1071,16.27,51,34,6.17,AU,1694501335
255,grants,35.1473,-107.8514,16.13,77,100,7.2,US,1694501336
256,udachny,66.4167,112.4,9.14,75,100,4.04,RU,1694501336
257,rifle,39.5347,-107.7831,15.39,50,0,2.57,US,1694501336
258,atafu village,-8.5421,-172.5159,28.39,77,100,6.47,TK,1694501336
259,at taraf,25.3628,49.725,36.3,26,27,3.15,SA,1694501337
260,emerald,-23.5333,148.1667,25.59,22,6,5.69,AU,1694501337
261,westport,41.1415,-73.3579,21.27,92,100,2.06,US,1694501107
262,vadso,70.0744,29.7487,15.49,88,75,4.63,NO,1694501337
263,kununurra,-15.7667,128.7333,33.99,10,7,4.63,AU,1694501338
264,arno,60.1167,18.6333,15.44,89,71,3.97,SE,1694501338
265,kalkaman,51.9525,76.0211,15.63,53,100,8.48,KZ,1694501338
266,pontianak,-0.0333,109.3333,30.99,70,75,3.09,ID,1694501338
267,korla,41.7597,86.1469,33.35,12,0,4.93,CN,1694501338
268,condoto,5.0935,-76.6497,24.14,96,100,0.73,CO,1694501339
269,cordoba,-31.4135,-64.1811,13.44,33,0,4.12,AR,1694501140
270,cadale,2.7603,46.3222,27.23,74,97,6.41,SO,1694501339
271,hamilton,39.1834,-84.5333,19.99,87,0,0.0,US,1694501339
272,taksimo,56.3444,114.8794,11.99,43,100,1.66,RU,1694501339
273,itoman,26.1247,127.6694,32.43,78,40,7.72,JP,1694501340
274,uliastay,47.7417,96.8444,18.92,30,90,3.15,MN,1694501340
275,apolinario saravia,-24.4328,-63.9954,19.43,52,3,10.9,AR,1694501340
276,zaozersk,69.4005,32.4476,14.8,88,100,10.39,RU,1694501340
277,tura,25.5198,90.2201,29.64,78,84,1.16,IN,1694501341
278,santana,-0.0583,-51.1817,28.1,78,40,3.09,BR,1694500980
279,kamloops,50.6665,-120.3192,16.55,63,20,1.03,CA,1694501154
280,noumea,-22.2763,166.4572,20.99,71,76,6.31,NC,1694501182
281,loukhi,66.0764,33.0381,17.26,80,100,5.36,RU,1694501341
282,valdosta,30.8327,-83.2785,22.77,96,0,2.57,US,1694501342
283,forssa,60.8146,23.6215,17.04,92,100,3.51,FI,1694501342
284,itaituba,-4.2761,-55.9836,26.48,64,98,1.02,BR,1694501342
285,leninskoye,41.7589,69.3864,22.72,28,0,3.23,KZ,1694501343
286,muroto-misakicho,33.2833,134.15,27.54,71,76,3.23,JP,1694501343
287,hampshire,42.3334,-72.5829,21.27,98,100,0.0,US,1694501343
288,boa vista,2.8197,-60.6733,23.99,88,75,1.03,BR,1694501343
289,port lincoln,-34.7333,135.8667,20.34,50,12,1.06,AU,1694501155
290,illapel,-31.6308,-71.1653,11.16,91,100,1.35,CL,1694501171
291,tres lagoas,-20.7511,-51.6783,23.67,34,0,3.13,BR,1694501344
292,halvad,23.0167,71.1833,32.6,49,93,7.04,IN,1694501124
293,kuta,-8.7233,115.1723,28.97,79,20,7.2,ID,1694501344
294,ishpeming,46.4885,-87.6676,11.52,92,100,3.56,US,1694501345
295,eforie sud,44.0229,28.6494,22.67,53,6,1.86,RO,1694501345
296,weno,7.4515,151.8468,29.97,70,75,2.06,FM,1694501345
297,ventnor,50.5948,-1.2037,18.55,97,91,0.45,GB,1694501345
298,vorkuta,67.5,64.0,13.46,49,79,1.93,RU,1694501346
299,pallasovka,50.05,46.8833,15.44,55,97,2.29,RU,1694501346
300,cabedelo,-6.9811,-34.8339,23.37,83,22,7.67,BR,1694501346
301,keflavik,64.0049,-22.5624,4.24,70,20,4.12,IS,1694500856
302,tazovsky,67.4667,78.7,10.98,63,42,6.64,RU,1694501347
303,magadan,59.5667,150.8,11.41,70,100,1.61,RU,1694501347
304,kitakami,39.2833,141.1167,30.19,66,75,4.12,JP,1694501347
305,saldanha,-33.0117,17.9442,10.19,61,90,3.62,ZA,1694501347
306,barranca,-10.75,-77.7667,17.8,85,98,4.09,PE,1694501347
307,dauphin,51.1494,-100.0502,5.51,66,45,2.22,CA,1694501348
308,mattersburg,47.7333,16.4,26.23,57,29,0.57,AT,1694501348
309,amargosa,-13.0303,-39.6047,19.4,88,100,1.59,BR,1694501348
310,grantsville,40.5999,-112.4644,19.24,31,23,1.48,US,1694501348
311,guatrache,-37.6678,-63.5302,6.0,46,0,3.13,AR,1694501348
312,olinda,-8.0089,-34.8553,25.85,73,40,4.63,BR,1694501349
313,kyzyl-mazhalyk,51.1333,90.6,17.01,49,100,0.35,RU,1694501349
314,tuy hoa,13.0833,109.3,34.49,50,96,3.08,VN,1694501349
315,zemio,5.0314,25.1361,26.27,75,53,0.72,CF,1694501349
316,kayangel,8.0823,134.7173,28.32,77,100,6.62,PW,1694501350
317,fisterra,42.9049,-9.2629,15.42,84,9,1.51,ES,1694501350
318,mandera,3.9366,41.867,31.39,41,36,5.84,KE,1694501350
319,gargalianoi,37.0667,21.6333,23.53,35,0,1.14,GR,1694501350
320,bontang,0.1333,117.5,24.59,91,100,2.52,ID,1694501351
321,phek,25.6667,94.5,23.18,79,100,0.68,IN,1694501351
322,temara,33.9287,-6.9066,20.58,95,40,0.0,MA,1694501351
323,nadvoitsy,63.8667,34.3167,17.05,77,12,5.13,RU,1694501351
324,pionerskiy,54.9508,20.2275,17.91,78,62,3.02,RU,1694501352
325,deltona,28.9005,-81.2637,24.92,95,0,0.0,US,1694501352
326,bhairab bazar,24.0667,90.9667,32.06,67,94,3.73,BD,1694501352
327,dois vizinhos,-25.7336,-53.0572,16.14,89,0,1.74,BR,1694501352
328,khandyga,62.6667,135.6,7.78,70,95,2.45,RU,1694501352
329,mpika,-11.8343,31.4529,26.84,32,0,4.38,ZM,1694501353
330,gannan,47.9147,123.5031,18.32,44,98,4.27,CN,1694501353
331,dalandzadgad,43.5708,104.425,22.45,22,100,4.49,MN,1694501353
332,beledweyne,4.7358,45.2036,31.3,41,55,7.36,SO,1694501353
333,sinabang,2.4803,96.3801,28.05,81,87,3.88,ID,1694501354
334,perryville,37.7242,-89.8612,19.61,100,100,3.6,US,1694501222
335,tralee,52.2704,-9.7026,10.1,88,16,1.66,IE,1694501354
336,medicine hat,50.0501,-110.6683,21.24,42,0,8.23,CA,1694501138
337,matoury,4.8483,-52.3317,22.98,100,0,0.0,GF,1694501354
338,bhag,29.0415,67.8239,40.08,21,0,2.51,PK,1694501354
339,afaahiti,-17.75,-149.2833,21.93,87,100,10.58,PF,1694501355
340,pimenta bueno,-11.6725,-61.1936,27.01,56,46,1.0,BR,1694501355
341,taco pozo,-25.6167,-63.2833,17.13,60,34,7.87,AR,1694501355
342,skovorodino,53.9833,123.9167,10.83,51,100,4.99,RU,1694501355
343,pisco,-13.7,-76.2167,17.79,88,5,1.03,PE,1694501356
344,hadibu,12.65,54.0333,29.1,69,29,10.29,YE,1694501356
345,honiara,-9.4333,159.95,26.67,82,100,1.12,SB,1694501005
346,tsiombe,-25.3,45.4833,31.63,25,0,1.78,MG,1694501356
347,arkhangel'sk,64.5401,40.5433,17.35,68,56,4.35,RU,1694501356
348,kimbe,-5.5502,150.1429,27.87,72,25,4.54,PG,1694501315
349,codrington,-38.2667,141.9667,17.44,65,18,3.33,AU,1694501357
350,sharm el-sheikh,27.8518,34.305,31.9,41,0,7.15,EG,1694501357
351,tobruk,32.0836,23.9764,25.47,66,0,5.39,LY,1694501357
352,perevoz,55.5961,44.5446,14.31,67,100,3.4,RU,1694501358
353,phan rang-thap cham,11.5667,108.9833,34.93,47,67,5.37,VN,1694501358
354,las heras,-46.5419,-68.9359,4.4,66,14,9.96,AR,1694501266
355,mvurwi,-17.0333,30.85,26.94,16,0,1.87,ZW,1694501358
356,hilo,19.7297,-155.09,23.47,95,100,5.14,US,1694501359
357,nadi,-17.8,177.4167,26.0,73,40,4.12,FJ,1694501285
358,macapa,0.0389,-51.0664,27.99,78,40,3.09,BR,1694501359
359,mar del plata,-38.0023,-57.5575,8.38,86,0,3.6,AR,1694500803
360,fort bragg,35.139,-79.006,23.75,92,0,0.0,US,1694501359
361,nar'yan-mar,67.6713,53.087,15.91,74,91,6.65,RU,1694501359
362,port hedland,-20.3167,118.5667,31.03,30,21,7.72,AU,1694501360
363,tabou,4.423,-7.3528,24.6,91,100,2.63,CI,1694501360
364,sona,45.4388,10.8255,22.19,79,100,1.54,IT,1694501082
365,franceville,-1.6333,13.5836,23.91,73,7,1.58,GA,1694501361
366,zurrieq,35.8311,14.4742,24.98,88,0,1.03,MT,1694501361
367,hanceville,34.0607,-86.7675,24.0,70,100,1.2,US,1694501361
368,cockburn town,21.4612,-71.1419,29.17,75,19,8.1,TC,1694501361
369,wulingyuan,29.3494,110.5441,21.96,96,100,2.32,CN,1694501361
370,teluknaga,-6.0989,106.6381,36.46,49,20,6.17,ID,1694501362
371,vilyuysk,63.7553,121.6247,12.74,53,99,2.53,RU,1694501362
372,bryne,58.7354,5.6477,14.2,95,75,6.69,NO,1694501362
373,el alto,-4.2714,-81.2147,19.12,80,49,5.72,PE,1694501362
374,galesong,-5.3166,119.3661,36.01,50,26,3.24,ID,1694501363
375,north battleford,52.7834,-108.2847,13.56,67,0,6.17,CA,1694501363
376,villa gesell,-37.2639,-56.973,6.7,81,92,6.63,AR,1694501155
377,n'dalatando,-9.2978,14.9116,18.67,78,85,1.63,AO,1694501363
378,gardnerville ranchos,38.8882,-119.7413,18.99,57,0,3.09,US,1694501243
379,selkirk,50.1436,-96.8845,9.04,75,0,2.74,CA,1694501349
380,ketchikan,55.3422,-131.6461,13.26,94,100,4.63,US,1694501364
381,alekseyevskoye,55.3071,50.1135,13.13,68,100,4.7,RU,1694501364
382,lazaro cardenas,17.9583,-102.2,25.74,87,9,1.34,MX,1694501364
383,livingston,55.9029,-3.5226,10.67,89,0,1.03,GB,1694501364
384,nacala,-14.5428,40.6728,27.62,74,40,6.17,MZ,1694501365
385,illizi,26.4833,8.4667,23.89,20,0,3.38,DZ,1694501365
386,alaghsas,17.0187,8.0168,28.94,34,0,4.12,NE,1694501365
387,nyurba,63.2842,118.3319,8.25,87,100,1.28,RU,1694501365
388,bako,5.7833,36.5667,21.89,69,89,1.07,ET,1694501365
389,carnarvon,-24.8667,113.6333,22.33,66,6,5.57,AU,1694501203
390,sao joao da barra,-21.6403,-41.0511,21.93,88,0,8.9,BR,1694501367
391,salinopolis,-0.6136,-47.3561,26.25,76,2,6.04,BR,1694501367
392,alvaraes,-3.2208,-64.8042,23.01,99,100,0.72,BR,1694501367
393,qaryat suluq,31.6682,20.2521,24.37,60,0,5.63,LY,1694501368
394,touros,-5.1989,-35.4608,24.07,82,19,5.44,BR,1694501317
395,minas de marcona,-15.2119,-75.1103,11.27,90,57,6.6,PE,1694501368
396,sayre,41.979,-76.5155,17.03,98,13,0.64,US,1694501368
397,oum hadjer,13.2954,19.6966,27.65,73,96,5.27,TD,1694501368
398,lhokseumawe,5.1801,97.1507,30.54,63,100,2.77,ID,1694501369
399,carauari,-4.8828,-66.8958,22.03,99,100,1.19,BR,1694501369
400,tambopata,-12.7333,-69.1833,23.68,73,4,1.21,PE,1694501369
401,jawf al maqbabah,13.8378,45.8349,31.97,35,39,4.19,YE,1694501369
402,kuala belait,4.5833,114.1833,31.09,64,100,1.9,BN,1694501370
403,la foa,-21.7108,165.8276,20.68,73,68,5.61,NC,1694501299
404,taulaga,-11.0553,-171.0883,28.36,76,36,5.39,AS,1694501370
405,mount pearl,47.5166,-52.7813,13.31,97,100,3.09,CA,1694501255
406,dadukou,26.5479,101.7054,28.06,66,100,2.67,CN,1694501370
407,fortuna,40.5982,-124.1573,15.75,94,100,3.6,US,1694501371
408,charters towers,-20.1,146.2667,27.01,21,41,6.69,AU,1694501371
409,svatove,49.4103,38.1503,16.73,58,100,1.4,UA,1694501371
410,pandan,14.0453,124.1694,26.0,89,100,1.09,PH,1694501371
411,taltal,-25.4,-70.4833,15.46,79,3,0.97,CL,1694501170
412,tanguieta,10.6212,1.2665,24.97,89,100,2.91,BJ,1694501372
413,powder springs,33.8596,-84.6838,24.06,91,20,0.0,US,1694501372
414,kenai,60.5544,-151.2583,9.49,87,0,2.06,US,1694501372
415,tofol,5.3248,163.0078,27.46,75,100,2.4,FM,1694501372
416,nantucket,41.2835,-70.0995,22.23,100,100,1.54,US,1694501372
417,ballina,-28.8667,153.5667,19.32,60,0,4.46,AU,1694501136
418,acarau,-2.8856,-40.12,24.98,81,4,6.63,BR,1694501373
419,belyy yar,53.6039,91.3903,15.94,77,0,2.0,RU,1694501373
420,praia da vitoria,38.7333,-27.0667,20.98,88,20,3.14,PT,1694501373
421,luanco,43.6152,-5.7934,18.34,98,94,0.9,ES,1694501374
422,terme,41.2092,36.9739,18.96,57,14,3.72,TR,1694501374
423,adrar,20.5022,-10.0711,31.79,29,84,3.52,MR,1694501374
424,dogonbadan,30.3586,50.7981,37.05,26,0,0.0,IR,1694501374
425,namibe,-15.1961,12.1522,17.31,84,53,4.16,AO,1694501374
426,da nang,16.0678,108.2208,32.99,55,75,3.6,VN,1694501375
427,inhambane,-23.865,35.3833,21.99,88,75,9.26,MZ,1694501375
428,upper grand lagoon,30.1633,-85.7408,27.24,87,0,2.57,US,1694501375
429,bar,49.0772,27.6826,20.97,25,5,3.11,UA,1694501375
430,afif,23.9065,42.9172,36.97,11,23,2.62,SA,1694501375
431,kabirwala,30.4068,71.8667,36.92,16,0,2.53,PK,1694501376
432,roma,43.2128,-75.4557,18.86,96,100,0.0,US,1694501376
433,syktyvkar,61.6764,50.8099,9.85,93,100,2.0,RU,1694501376
434,chonchi,-42.6128,-73.8092,6.56,98,100,1.36,CL,1694501189
435,bairnsdale,-37.8333,147.6167,21.7,39,0,1.79,AU,1694501376
436,leduc,53.2668,-113.552,16.88,67,75,3.09,CA,1694501377
437,aripuana,-9.1667,-60.6333,24.8,65,69,1.54,BR,1694501377
438,tamanrasset,22.785,5.5228,25.95,17,0,7.2,DZ,1694501377
439,polyarnyy,69.1989,33.4478,15.65,84,99,10.89,RU,1694501377
440,lorengau,-2.0226,147.2712,27.72,80,8,5.14,PG,1694501377
441,guaratuba,-25.8828,-48.5747,18.8,92,0,2.17,BR,1694501378
442,yaren,-0.5472,166.916,28.86,71,93,2.84,NR,1694501378
443,quelimane,-17.8786,36.8883,23.97,60,0,4.63,MZ,1694501378
444,cromwell,41.5951,-72.6454,21.51,97,100,0.0,US,1694501108
445,vetovo,43.7,26.2667,23.46,35,0,1.79,BG,1694501379
446,kintampo,8.0563,-1.7306,22.12,96,71,2.96,GH,1694501379
447,kijang,35.2442,129.2139,28.85,66,92,2.64,KR,1694501379
448,ivins,37.1686,-113.6794,24.26,50,96,0.89,US,1694501379
449,peniche,39.3558,-9.3811,18.03,97,0,0.24,PT,1694501380
450,nizao,18.25,-70.2,26.04,85,18,1.45,DO,1694501156
451,castillos,-34.1667,-53.8333,11.07,85,78,5.73,UY,1694501380
452,amungan,15.3652,119.9582,28.45,76,100,1.48,PH,1694501380
453,daru,-9.0763,143.2092,25.61,68,43,8.09,PG,1694501279
454,harrismith,-28.2728,29.1295,6.02,36,7,7.01,ZA,1694501381
455,abu qurqas,27.9312,30.8384,27.64,52,0,6.55,EG,1694501381
456,thurso,58.5927,-3.5259,10.48,66,100,7.22,GB,1694501248
457,kas,36.2018,29.6377,29.94,31,0,1.58,TR,1694501381
458,ampanihy,-24.7,44.75,30.61,30,0,2.3,MG,1694501381
459,fuglafjordur,62.244,-6.814,6.26,74,99,8.25,FO,1694501382
460,santa ana,33.7456,-117.8678,26.31,77,75,1.54,US,1694501148
461,cidreira,-30.1811,-50.2056,17.3,94,100,2.59,BR,1694501382
462,portland,45.5234,-122.6762,18.99,72,40,2.06,US,1694500805
463,callao,-12.0667,-77.15,19.16,77,100,3.6,PE,1694501382
464,sandpoint,48.2766,-116.5533,15.25,80,0,0.45,US,1694501363
465,san nicolas,18.1725,120.5953,30.95,74,75,2.57,PH,1694501383
466,beloyarskiy,63.7119,66.6722,17.78,52,27,2.24,RU,1694501383
467,yudong,29.385,106.5194,23.61,86,100,0.84,CN,1694501383
468,kadugli,11.0167,29.7167,22.48,93,100,3.62,SD,1694501383
469,sola,-13.8833,167.55,27.37,74,75,2.06,VU,1694501384
470,iwanai,42.9744,140.5089,20.49,97,100,2.79,JP,1694501384
471,hancheng,32.5186,112.3522,20.55,94,100,3.4,CN,1694501384
472,jinchang,38.4953,102.1739,29.16,12,49,5.64,CN,1694501384
473,raja,8.4596,25.678,25.62,73,84,1.82,SS,1694501385
474,tabas,33.5959,56.9244,38.12,11,0,1.03,IR,1694501385
475,oviedo,43.3603,-5.8448,16.82,100,100,0.96,ES,1694501385
476,vila velha,-20.3297,-40.2925,21.08,96,40,1.03,BR,1694501385
477,bima,-8.4667,118.7167,32.46,42,14,2.01,ID,1694501385
478,mpanda,-6.3655,31.0409,29.75,41,1,1.58,TZ,1694501386
479,bam,29.106,58.357,38.62,6,0,2.93,IR,1694501386
480,lovington,32.944,-103.3485,17.47,81,97,6.85,US,1694501386
481,qobustan,40.0824,49.412,22.67,61,79,3.94,AZ,1694501386
482,luanda,-8.8368,13.2343,21.0,88,75,2.57,AO,1694501251
483,mabaruma,8.2,-59.7833,24.62,91,23,1.33,GY,1694501387
484,lata,40.1629,-8.3327,17.18,93,5,0.76,PT,1694501387
485,espanola,35.9911,-106.0806,15.95,84,100,1.34,US,1694501387
486,mohr,54.3528,9.7167,19.08,95,75,2.06,DE,1694501388
487,muli,2.9167,73.5667,28.19,72,31,3.69,MV,1694501388
488,pariaman,-0.619,100.12,29.03,75,30,4.08,ID,1694501388
489,kapit,2.0167,112.9333,26.62,87,100,1.05,MY,1694501388
490,lindi,-10.0,39.7167,27.49,68,99,4.05,TZ,1694501389
491,kerikeri,-35.2268,173.9474,12.73,78,0,0.45,NZ,1694501389
492,sparta,43.9441,-90.8129,12.0,96,0,0.0,US,1694501147
493,vetluga,57.8557,45.781,15.75,62,22,1.68,RU,1694501389
494,rikaze,29.25,88.8833,21.15,24,73,1.28,CN,1694501389
495,brokopondo,4.75,-55.1667,25.12,87,87,3.79,SR,1694501390
496,kogalym,62.2654,74.4791,17.69,50,52,1.87,RU,1694501390
497,puerto armuelles,8.2833,-82.8667,27.87,72,96,0.45,PA,1694501390
498,vinh,18.6667,105.6667,31.89,60,100,2.35,VN,1694501390
499,shimoda,34.6667,138.95,28.2,68,20,2.67,JP,1694501390
500,mount isa,-20.7333,139.5,28.87,17,0,6.69,AU,1694501243
501,grand falls-windsor,48.9332,-55.6649,11.39,94,100,0.45,CA,1694501391
502,springbok,-29.6643,17.8865,6.52,43,1,11.23,ZA,1694501391
503,nagqu,31.5,92.0,11.45,34,100,1.79,CN,1694501391
504,soma,39.1855,27.6094,18.53,52,0,5.58,TR,1694501391
505,oroqen zizhiqi,50.5667,123.7167,14.82,33,100,4.41,CN,1694501392
506,rhinelander,45.6366,-89.4121,8.64,87,0,0.0,US,1694501392
507,kandalaksha,67.162,32.4123,15.86,89,100,4.37,RU,1694501392
508,gao,16.6362,1.637,34.41,28,16,2.79,ML,1694501392
509,palikir - national government center,6.9248,158.1611,28.51,70,100,1.65,FM,1694501166
510,murzuq,25.9155,13.9184,26.15,34,0,4.97,LY,1694501393
511,san luis,-33.295,-66.3356,8.28,30,52,7.13,AR,1694501393
512,san luis de la loma,17.2706,-100.8939,25.67,84,24,1.93,MX,1694501393
513,ribadesella,43.4614,-5.0596,18.3,87,79,1.92,ES,1694501393
514,zeya,53.75,127.2667,7.38,83,100,4.89,RU,1694501394
515,anderson,34.5334,-82.6499,22.35,97,0,0.0,US,1694501394
516,bengbu,32.9408,117.3608,21.3,95,100,3.86,CN,1694501394
517,al qusiyah,27.4402,30.8184,28.63,44,0,7.12,EG,1694501394
518,howrah,22.5892,88.3103,33.0,70,75,2.57,IN,1694501395
519,conception bay south,47.4999,-52.9981,13.64,97,100,2.23,CA,1694501395
520,constantia,44.1833,28.65,22.61,54,6,1.78,RO,1694501395
521,natal,-5.795,-35.2094,22.36,100,40,3.09,BR,1694501395
522,aykhal,66.0,111.5,5.83,81,100,5.08,RU,1694501395
523,labrador city,52.9463,-66.9114,3.95,100,100,0.0,CA,1694501396
524,sidney,-33.8679,151.2073,21.44,65,40,5.14,AU,1694501155
525,taipei,25.0478,121.5319,33.93,57,40,4.12,TW,1694501195
526,sergeyevka,53.88,67.4158,14.59,54,34,8.8,KZ,1694501396
527,badiyah,22.45,58.8,36.14,28,31,2.38,OM,1694501396
528,sur,22.5667,59.5289,34.72,39,15,1.0,OM,1694501397
529,muisne,0.6,-80.0333,24.46,88,100,4.92,EC,1694501397
530,khadan khak,30.7477,67.7085,31.7,7,0,2.88,PK,1694501397
531,banda aceh,5.5577,95.3222,30.78,67,99,5.65,ID,1694501062
532,sferracavallo,42.726,12.0956,26.03,75,100,0.47,IT,1694501397
533,palasa,18.7667,84.4167,29.26,75,100,1.7,IN,1694501398
534,lethem,3.3803,-59.7968,23.22,88,31,1.76,GY,1694501398
535,gouyave,12.1646,-61.7296,28.43,84,20,6.17,GD,1694501398
536,howard springs,-12.497,131.047,31.6,52,100,1.7,AU,1694501398
537,taman',45.2117,36.7161,20.99,53,48,2.08,RU,1694501398
538,queimadas,-10.9783,-39.6264,18.47,93,43,2.23,BR,1694501399
539,paris,48.8534,2.3488,19.28,91,100,2.06,FR,1694500844
540,bargaal,11.2864,51.0773,35.49,40,5,7.55,SO,1694501399
541,gaigeturi,33.4644,126.3183,28.03,65,75,5.14,KR,1694501399
542,itigi,-5.7,34.4833,25.44,46,51,3.51,TZ,1694501400
543,pacifica,37.6138,-122.4869,17.07,91,75,6.26,US,1694501400
544,lashkar gah,31.5938,64.3716,37.61,8,0,0.95,AF,1694501400
545,santa vitoria,-18.8386,-50.1214,23.21,35,0,3.01,BR,1694501400
546,bamboo flat,11.7,92.7167,30.05,74,75,6.17,IN,1694501401
547,sandnessjoen,66.0217,12.6316,11.29,93,75,0.0,NO,1694501401
548,ancud,-41.8697,-73.8203,8.54,87,100,4.09,CL,1694501193
549,tanout,14.9709,8.8879,30.41,48,100,5.0,NE,1694501401
550,kitui,-1.367,38.0106,24.44,48,60,3.07,KE,1694501402
551,sao felix do xingu,-6.6447,-51.995,22.73,70,4,0.42,BR,1694501402
552,bilovods'k,49.2085,39.5897,16.09,55,100,2.42,UA,1694501402
553,tateyama,34.9833,139.8667,27.16,70,9,3.73,JP,1694501402
554,xining,36.6167,101.7667,21.58,34,4,1.61,CN,1694501403
555,saint-francois,46.4154,3.9054,16.49,100,0,1.54,FR,1694501403
556,uvira,-3.4067,29.1458,25.96,66,88,2.37,CD,1694501403
557,ryotsu-minato,38.0833,138.4333,27.93,72,85,1.68,JP,1694501403
